,City,Cloudiness,Country,Date,Humidity,Lat,Lng,Max Temp,Wind Speed
0,Punta Arenas,75,CL,1644203723,82,-53.15,-70.9167,12.06,4.63
1,Pevek,27,RU,1644203737,98,69.7008,170.3133,-30.76,0.41
2,Pushkinskiye Gory,100,RU,1644203738,98,57.0209,28.9103,0.34,4.78
3,Hermanus,66,ZA,1644203738,92,-34.4187,19.2345,19.33,1.9
4,Butaritari,71,KI,1644203739,76,3.0707,172.7902,27.69,6.9
5,Palana,73,RU,1644203739,74,59.1167,159.9667,-9.11,4.12
6,Lavrentiya,56,RU,1644203711,95,65.5833,-171.0,-26.46,2.32
7,Port Alfred,82,ZA,1644203739,79,-33.5906,26.891,22.74,2.22
8,Husavik,100,IS,1644203740,85,66.0449,-17.3389,-4.05,6.48
9,Rikitea,16,PF,1644203740,72,-23.1203,-134.9692,26.12,8.38
10,East London,0,ZA,1644203740,94,-33.0153,27.9116,21.52,2.06
11,Chokurdakh,79,RU,1644203741,99,70.6333,147.9167,-39.85,1.72
12,Flinders,44,AU,1644203741,70,-34.5833,150.8552,23.43,3.13
13,Bambous Virieux,100,MU,1644203741,81,-20.3428,57.7575,26.23,4.86
14,Mataura,8,NZ,1644203742,34,-46.1927,168.8643,15.82,1.23
15,Cabo San Lucas,20,MX,1644203631,73,22.8909,-109.9124,19.73,0.0
16,Barrow,0,US,1644203474,68,71.2906,-156.7887,-32.99,6.69
17,Hobart,20,AU,1644203703,34,-42.8794,147.3294,26.68,3.6
18,Ushuaia,40,AR,1644203488,67,-54.8,-68.3,15.81,6.69
19,Jamestown,0,US,1644203487,45,42.097,-79.2353,-1.23,4.63
20,Maceió,20,BR,1644203742,88,-9.6658,-35.7353,23.69,2.06
21,New Norfolk,0,AU,1644203447,29,-42.7826,147.0587,25.92,1.34
22,Geraldton,40,AU,1644203744,38,-28.7667,114.6,25.23,7.72
23,Arraial do Cabo,0,BR,1644203654,92,-22.9661,-42.0278,24.09,8.38
24,Vaini,100,TO,1644203704,100,-21.2,-175.2,24.09,2.06
25,Dikson,100,RU,1644203744,97,73.5069,80.5464,-25.03,7.3
26,Haines Junction,32,CA,1644203745,38,60.7522,-137.5108,4.97,4.63
27,Suihua,96,CN,1644203745,85,46.6406,126.9969,-13.11,2.98
28,Baykit,49,RU,1644203745,99,61.67,96.37,-21.51,1.33
29,Mayo,100,US,1644203746,66,38.8876,-76.5119,1.25,0.45
30,Severo-Kuril'sk,100,RU,1644203746,83,50.6789,156.125,-0.28,4.5
31,Constitución,0,CL,1644203464,80,-35.3333,-72.4167,14.33,1.83
32,Buraidah,0,SA,1644203746,48,26.326,43.975,6.25,2.65
33,Mayumba,63,GA,1644203747,92,-3.432,10.6554,24.54,3.7
34,Erzin,0,TR,1644203510,73,36.9559,36.2,1.4,1.74
35,Cape Town,50,ZA,1644203470,86,-33.9258,18.4232,17.93,0.45
36,Gwembe,93,ZM,1644203747,95,-16.4975,27.6069,16.34,1.7
37,Albany,10,US,1644203706,76,42.6001,-73.9662,-5.94,1.87
38,Yellowknife,20,CA,1644203748,91,62.456,-114.3525,-19.77,1.54
39,Carnarvon,6,AU,1644203748,48,-24.8667,113.6333,24.6,9.43
40,Khatanga,99,RU,1644203749,98,71.9667,102.5,-27.26,4.29
41,Teknāf,14,BD,1644203749,49,20.8624,92.3058,19.67,3.02
42,Aksarka,96,RU,1644203749,100,66.5606,67.7975,-25.9,3.03
43,Berlevåg,60,NO,1644203749,85,70.8578,29.0864,-6.72,9.26
44,Ahipara,97,NZ,1644203750,96,-35.1667,173.1667,23.95,2.76
45,Busselton,70,AU,1644203750,51,-33.65,115.3333,20.6,8.96
46,Ulaangom,93,MN,1644203541,96,49.9811,92.0667,-30.37,0.2
47,Bengkulu,99,ID,1644203711,70,-3.8004,102.2655,27.58,4.83
48,Wanning,63,CN,1644203751,85,18.8003,110.3967,23.81,3.42
49,Hasaki,6,JP,1644203751,34,35.7333,140.8333,9.05,3.15
50,Bethel,75,US,1644203751,82,41.3712,-73.414,-1.91,0.0
51,Pimentel,97,PE,1644203752,80,-6.8367,-79.9342,21.48,4.96
52,Ribeira Grande,9,PT,1644203556,83,38.5167,-28.7,16.15,7.16
53,Khani,89,GE,1644203752,87,41.9563,42.9566,-4.24,2.48
54,Yangi Marg`ilon,75,UZ,1644203752,81,40.4272,71.7189,3.68,3.09
55,Salalah,0,OM,1644203753,25,17.0151,54.0924,23.05,7.72
56,Nam Som,96,TH,1644203753,51,17.7704,102.1895,26.72,1.15
57,Bathsheba,75,BB,1644203753,83,13.2167,-59.5167,25.34,5.66
58,Longyearbyen,0,SJ,1644203754,73,78.2186,15.6401,-9.09,2.06
59,Yerbogachën,99,RU,1644203754,97,61.2767,108.0108,-22.18,1.09
60,Thompson,100,CA,1644203754,71,55.7435,-97.8558,-20.91,2.06
61,Sola,100,VU,1644203755,80,-13.8833,167.55,28.29,9.11
62,Kota Bharu,40,MY,1644203755,83,6.1333,102.2386,28.0,4.63
63,Narsaq,100,GL,1644203741,82,60.9167,-46.05,-11.88,2.49
64,Qasigiannguit,100,GL,1644203755,97,68.8193,-51.1922,-14.86,4.17
65,Maniitsoq,100,GL,1644203756,92,65.4167,-52.9,-16.29,6.19
66,Saint-Pierre,0,RE,1644203548,78,-21.3393,55.4781,25.8,2.06
67,Meulaboh,100,ID,1644203756,83,4.1363,96.1285,25.81,1.14
68,Castro,2,BR,1644203757,84,-24.7911,-50.0119,16.42,0.94
69,Faanui,100,PF,1644203757,75,-16.4833,-151.75,27.23,9.0
70,Dingle,48,PH,1644203757,63,10.9995,122.6711,28.75,6.89
71,Coahuayana Viejo,49,MX,1644203758,75,18.7333,-103.6833,21.04,1.52
72,Villamontes,0,BO,1644203758,73,-21.25,-63.5,18.95,1.89
73,Tasiilaq,100,GL,1644203758,53,65.6145,-37.6368,-5.91,26.96
74,Bluff,0,NZ,1644203759,66,-46.6,168.3333,16.0,5.98
75,Kuala Sungai Baru,94,MY,1644203759,75,2.3594,102.0353,29.08,2.6
76,Visnes,20,NO,1644203759,60,59.3556,5.2242,4.34,12.35
77,Sitka,100,US,1644203760,76,57.0531,-135.33,6.94,6.69
78,Isangel,100,VU,1644203760,92,-19.55,169.2667,26.25,8.26
79,Upernavik,100,GL,1644203760,100,72.7868,-56.1549,-25.83,3.76
80,Bereda,61,ES,1644203761,98,43.2686,-7.5406,4.76,0.87
81,Salinópolis,100,BR,1644203761,88,-0.6136,-47.3561,25.37,3.2
82,Mar del Plata,40,AR,1644203510,82,-38.0023,-57.5575,18.38,2.24
83,Bandi̇̄pur,0,NP,1644203761,71,27.9333,84.4167,9.33,0.42
84,Vila Velha,40,BR,1644203762,89,-20.3297,-40.2925,25.97,0.89
85,Rapid City,59,US,1644203566,47,44.0805,-103.231,5.72,3.58
86,Mount Gambier,0,AU,1644203538,20,-37.8333,140.7667,30.09,3.2
87,Rabo de Peixe,75,PT,1644203762,95,37.8,-25.5833,14.6,4.12
88,Ponta do Sol,7,PT,1644203763,69,32.6667,-17.1,17.35,4.76
89,Hervey Bay,89,AU,1644203518,92,-25.2986,152.8535,23.91,2.68
90,Hilo,85,US,1644203763,88,19.7297,-155.09,22.92,0.45
91,Klaksvík,100,FO,1644203501,50,62.2266,-6.589,-1.49,6.9
92,Monster,75,NL,1644203764,71,52.0258,4.175,6.66,6.71
93,Yenagoa,8,NG,1644203764,89,4.9247,6.2642,24.07,1.12
94,Sakaiminato,98,JP,1644203532,56,35.55,133.2333,6.48,4.72
95,Saint Paul Harbor,0,US,1644203750,51,57.79,-152.4072,1.73,7.72
96,Bandar,100,ID,1644203764,67,2.05,99.75,27.82,0.65
97,Khandyga,90,RU,1644203765,89,62.6667,135.6,-30.01,0.48
98,Batagay,100,RU,1644203765,93,67.6333,134.6333,-33.98,0.2
99,Lompoc,0,US,1644203766,77,34.6391,-120.4579,14.55,2.57
100,Chiang Rai,75,TH,1644203766,90,19.9167,99.9167,25.59,1.54
101,Grand Gaube,100,MU,1644203766,81,-20.0064,57.6608,26.32,0.89
102,Stockton-on-Tees,7,GB,1644203767,78,54.5685,-1.3187,3.11,0.45
103,Boa Viagem,9,BR,1644203767,84,-5.1275,-39.7322,23.01,0.61
104,Atuona,12,PF,1644203767,77,-9.8,-139.0333,26.0,7.64
105,Port Elizabeth,25,ZA,1644203768,74,-33.918,25.5701,21.62,1.57
106,São João da Barra,2,BR,1644203756,88,-21.6403,-41.0511,24.54,8.35
107,Leh,100,IN,1644203768,96,34.1667,77.5833,-11.68,1.25
108,Esperance,18,AU,1644203768,53,-33.8667,121.9,24.91,12.56
109,Manaure,3,CO,1644203766,80,11.7751,-72.4445,25.18,6.26
110,Camacha,75,PT,1644203769,63,33.0833,-16.3333,15.42,7.2
111,Atasū,100,KZ,1644203769,96,48.6814,71.6433,-3.23,6.9
112,Mweka,100,CD,1644203770,99,-4.85,21.5667,19.81,0.35
113,City of San Pedro,100,PH,1644203770,73,14.35,121.0167,29.06,8.08
114,Otavi,100,NA,1644203770,84,-19.65,17.3333,18.02,2.41
115,Saint George,0,US,1644203755,27,37.1041,-113.5841,11.33,0.45
116,Koungou,75,YT,1644203771,83,-12.7336,45.2042,26.84,5.14
117,Scottsbluff,0,US,1644203642,59,41.8666,-103.6672,3.21,2.57
118,Dauphin,100,CA,1644203771,85,51.1494,-100.0502,-14.92,1.54
119,Iqaluit,100,CA,1644203771,65,63.7506,-68.5145,-39.06,1.36
120,Abejorral,75,CO,1644203772,97,5.7893,-75.4273,14.53,0.77
121,Östersund,20,SE,1644203772,100,63.1792,14.6357,-4.75,1.54
122,Cockburn Town,0,TC,1644203772,75,21.4612,-71.1419,24.45,7.56
123,Malanville,0,BJ,1644203773,17,11.8685,3.3899,20.01,3.55
124,Hong Kong,100,HK,1644203500,90,22.2855,114.1577,18.99,0.45
125,Muroto-misakicho,69,JP,1644203773,52,33.2833,134.15,8.02,3.88
126,Russell,100,US,1644203633,72,32.3502,-85.1999,9.6,2.58
127,Chui,41,UY,1644203718,74,-33.6971,-53.4616,17.66,7.0
128,Manokwari,99,ID,1644203774,68,-0.8667,134.0833,28.34,2.5
129,Olafsvik,100,IS,1644203774,92,64.8945,-23.7142,-1.6,16.66
130,Namatanai,100,PG,1644203774,67,-3.6667,152.4333,29.91,3.18
131,Beloha,100,MG,1644203775,93,-25.1667,45.05,23.31,5.69
132,Abhar,100,IR,1644203775,78,36.1468,49.218,-2.12,3.33
133,Coquimbo,100,CL,1644203775,82,-29.9533,-71.3436,17.85,2.06
134,Shimoda,97,JP,1644203537,84,34.6667,138.95,6.72,0.67
135,Tuatapere,0,NZ,1644203776,44,-46.1333,167.6833,16.01,2.89
136,Pierre,20,US,1644203777,57,44.3683,-100.351,1.03,0.45
137,Saint-Philippe,94,RE,1644203777,85,-21.3585,55.7679,25.75,6.55
138,Katsuura,16,JP,1644203777,31,35.1333,140.3,8.06,2.01
139,Souillac,100,MU,1644203778,84,-20.5167,57.5167,26.31,4.45
140,Roald,75,NO,1644203778,81,62.5833,6.1333,4.63,4.63
141,Sarana,68,RU,1644203778,94,56.4773,57.7259,-14.8,1.18
142,Vao,42,NC,1644203779,82,-22.6667,167.4833,27.16,5.2
143,Seymchan,32,RU,1644203779,92,62.8833,152.4333,-32.6,0.68
144,Cumana,13,VE,1644203779,90,10.4635,-64.1775,24.39,4.19
145,Kannad,21,IN,1644203780,30,20.2667,75.1333,19.69,1.45
146,Qaanaaq,29,GL,1644203706,59,77.484,-69.3632,-24.26,3.24
147,Sobolevo,99,RU,1644203780,95,54.4299,31.8996,-1.08,6.38
148,Magdagachi,86,RU,1644203780,69,53.45,125.8,-15.53,0.45
149,Yulara,0,AU,1644203781,17,-25.2406,130.9889,32.91,6.17
150,Kapaa,20,US,1644203781,73,22.0752,-159.319,25.99,1.34
151,Noshiro,100,JP,1644203782,76,40.2039,140.0242,0.52,9.41
152,Koslan,98,RU,1644203782,95,63.4564,48.8989,-9.07,2.89
153,Ilulissat,20,GL,1644203782,72,69.2167,-51.1,-14.99,4.63
154,Palembang,40,ID,1644203605,78,-2.9167,104.7458,27.05,5.14
155,Sai Buri,60,TH,1644203783,74,6.7013,101.6168,27.84,2.9
156,Calbuco,6,CL,1644203783,86,-41.768,-73.1273,13.56,4.04
157,Ancud,5,CL,1644203721,89,-41.8697,-73.8203,12.74,1.28
158,Torbay,75,CA,1644203737,77,47.6666,-52.7314,-10.24,8.23
159,Fort Nelson,20,CA,1644203725,92,58.8053,-122.7002,-9.23,2.57
160,San Vicente,0,AR,1644203784,63,-26.6167,-54.1333,14.89,1.26
161,Hay River,40,CA,1644203784,78,60.8156,-115.7999,-15.01,1.03
162,Takhtamygda,100,RU,1644203784,67,54.1,123.5667,-14.87,0.65
163,Mt. Pleasant,100,US,1644203785,74,32.7941,-79.8626,8.0,1.34
164,Kaitangata,52,NZ,1644203785,80,-46.2817,169.8464,15.52,3.72
165,Lewisburg,0,US,1644203785,87,35.4492,-86.7889,3.36,0.0
166,Codrington,0,AU,1644203786,30,-38.2667,141.9667,28.38,6.17
167,Alice Springs,0,AU,1644203715,23,-23.7,133.8833,30.75,2.57
168,Diffa,0,NE,1644203786,33,13.3154,12.6113,16.42,4.55
169,Jalu,2,LY,1644203787,34,29.0331,21.5482,12.82,3.17
170,Bemidji,0,US,1644203764,88,47.4736,-94.8803,-18.25,1.54
171,Cidreira,8,BR,1644203787,74,-30.1811,-50.2056,20.12,3.49
172,Tornio,100,FI,1644203787,94,65.8481,24.1466,-0.99,4.21
173,Mahébourg,100,MU,1644203787,82,-20.4081,57.7,26.25,5.01
174,Tuy Hoa,75,VN,1644203788,82,13.0833,109.3,25.18,3.03
175,Rocha,100,UY,1644203788,85,-34.4833,-54.3333,17.14,6.21
176,George Town,20,MY,1644203700,78,5.4112,100.3354,28.96,2.06
177,Monrovia,98,LR,1644203789,82,6.3005,-10.7969,26.13,2.16
178,Bokhan,96,RU,1644203789,91,53.153,103.7714,-8.05,1.56
179,Raudeberg,90,NO,1644203789,89,61.9875,5.1352,4.0,1.34
180,Kondinskoye,100,RU,1644203790,93,59.6481,67.41,-13.07,4.24
181,Bredasdorp,13,ZA,1644203587,91,-34.5322,20.0403,19.04,2.5
182,Anadyr,0,RU,1644203790,76,64.75,177.4833,-25.72,4.0
183,Luancheng,100,CN,1644203791,34,37.8792,114.6517,2.09,0.86
184,Tautira,72,PF,1644203791,76,-17.7333,-149.15,30.01,8.93
185,San Policarpo,52,PH,1644203554,79,12.1791,125.5072,27.17,7.81
186,Avarua,20,CK,1644203792,78,-21.2078,-159.775,27.03,4.12
187,Dubbo,40,AU,1644203792,38,-32.25,148.6167,26.07,7.2
188,Hambantota,100,LK,1644203702,66,6.1241,81.1185,26.19,3.2
189,Abbeville,6,FR,1644203792,73,50.1,1.8333,6.98,7.73
190,Alofi,100,NU,1644203632,18,-19.0595,-169.9187,27.94,2.06
191,Waipawa,100,NZ,1644203793,90,-41.4122,175.5153,15.52,4.59
192,Los Llanos de Aridane,75,ES,1644203793,73,28.6585,-17.9182,16.86,8.49
193,Puerto Ayora,20,EC,1644203583,93,-0.7393,-90.3518,23.08,0.89
194,Rawson,0,AR,1644203793,49,-43.3002,-65.1023,17.66,8.3
195,Liverpool,75,GB,1644203672,84,53.4106,-2.9779,6.01,1.79
196,Tuktoyaktuk,75,CA,1644203794,68,69.4541,-133.0374,-34.0,5.66
197,Puerto Peñasco,0,MX,1644203606,17,31.3167,-113.5333,18.84,1.34
198,Balkhash,100,KZ,1644203794,92,46.844,74.9804,-8.66,2.0
199,Tiksi,100,RU,1644203795,98,71.6872,128.8694,-27.43,2.8
200,Marsh Harbour,28,BS,1644203795,72,26.5412,-77.0636,23.25,5.72
201,Talnakh,56,RU,1644203795,98,69.4865,88.3972,-33.42,0.31
202,Metro,96,ID,1644203795,80,-5.1131,105.3067,26.92,1.52
203,São Filipe,1,CV,1644203796,75,14.8961,-24.4956,22.49,2.67
204,Okhotsk,95,RU,1644203796,71,59.3833,143.3,-15.43,4.15
205,Sorong,100,ID,1644203796,72,-0.8833,131.25,28.69,3.76
206,Lālganj,0,IN,1644203797,64,25.8667,85.1833,10.97,2.01
207,Gamba,16,GA,1644203520,93,-2.65,10.0,24.56,2.32
208,Vredendal,0,ZA,1644203797,58,-31.6683,18.5012,19.23,0.49
209,Abu Samrah,91,SY,1644203797,89,35.3029,37.1841,8.56,3.18
210,Leningradskiy,63,RU,1644203798,100,69.3833,178.4167,-32.54,1.26
211,Atambua,18,ID,1644203798,67,-9.1061,124.8925,28.85,2.22
212,Tura,1,IN,1644203798,56,25.5198,90.2201,16.65,0.53
213,Dakar,0,SN,1644203799,94,14.6937,-17.4441,21.07,1.03
214,Kafanchan,0,NG,1644203799,26,9.5833,8.3,18.16,2.36
215,Nouakchott,36,MR,1644203799,51,18.0858,-15.9785,17.96,4.19
216,Olinda,75,BR,1644203800,69,-8.0089,-34.8553,27.85,2.57
217,Tiznit Province,4,MA,1644203800,22,29.5833,-9.5,15.91,3.12
218,Norman Wells,100,CA,1644203800,70,65.282,-126.8329,-24.98,8.23
219,Kenai,100,US,1644203801,95,60.5544,-151.2583,-2.17,0.0
220,Invermere,96,CA,1644203801,92,50.5167,-116.0354,-3.69,1.03
221,El Negrito,96,HN,1644203802,95,15.3167,-87.7,19.81,0.65
222,Mossamedes,95,AO,1644203802,70,-15.1961,12.1522,22.38,3.32
223,Saint-Augustin,18,CA,1644203802,92,51.226,-58.6502,-31.56,2.23
224,Opuwo,98,NA,1644203803,46,-18.0607,13.84,20.02,0.72
225,San Patricio,100,US,1644203803,83,28.017,-97.5169,13.99,4.44
226,College,75,US,1644203803,77,64.8569,-147.8028,-20.56,0.0
227,Acajutla,19,SV,1644203625,64,13.5928,-89.8275,26.56,2.13
228,Nome,0,US,1644203804,59,64.5011,-165.4064,-21.96,6.17
229,Hearst,100,CA,1644203804,96,49.6835,-83.6665,-16.86,3.29
230,Katobu,99,ID,1644203804,68,-4.9408,122.5276,29.61,3.33
231,Bukachacha,17,RU,1644203805,74,52.9833,116.9167,-12.38,0.71
232,Okha,100,RU,1644203805,94,53.5739,142.9478,-15.21,10.64
233,Half Moon Bay,100,US,1644203628,69,37.4636,-122.4286,15.9,0.45
234,Sangar,96,RU,1644203805,91,63.9242,127.4739,-32.28,1.01
235,Liepāja,100,LV,1644203806,100,56.5419,21.0367,3.03,1.54
236,Le Port,84,RE,1644203739,75,-20.9373,55.2919,25.98,4.46
237,Angoche,94,MZ,1644203806,94,-16.2325,39.9086,23.13,4.61
238,São Marcos,0,BR,1644203806,78,-28.9711,-51.0681,15.4,0.58
239,Pacifica,20,US,1644203628,78,37.6138,-122.4869,15.46,2.68
240,Saint-François,75,FR,1644203807,92,46.4154,3.9054,9.26,6.17
241,Saskylakh,93,RU,1644203807,100,71.9167,114.0833,-32.88,1.83
242,Yeppoon,2,AU,1644203808,59,-23.1333,150.7333,28.88,6.5
243,Aracataca,0,CO,1644203808,73,10.5918,-74.1898,27.88,1.76
244,Bekhtery,42,UA,1644203810,88,46.251,32.2927,3.33,7.1
245,Tynda,100,RU,1644203810,82,55.1667,124.7167,-18.4,0.8
246,La Santisima Trinidad,100,BO,1644203538,99,-14.8333,-64.9,21.24,1.31
247,Cururupu,100,BR,1644203725,95,-1.8283,-44.8683,23.82,0.8
248,Necochea,66,AR,1644203579,72,-38.5473,-58.7368,15.58,4.59
249,Provideniya,0,RU,1644203811,66,64.3833,-173.3,-15.94,5.0
250,Don Luan,42,VN,1644203811,43,11.5333,106.9167,32.36,1.89
251,La Tuque,100,CA,1644203811,78,47.4334,-72.7824,-12.86,2.57
252,Jablonné nad Orlicí,100,CZ,1644203812,96,50.0296,16.6006,4.15,5.93
253,Pangnirtung,100,CA,1644203812,96,66.1451,-65.7125,-38.94,2.0
254,Port-Gentil,33,GA,1644203812,84,-0.7193,8.7815,26.48,4.69
255,Ust-Kuyga,100,RU,1644203813,98,70.0167,135.6,-36.39,2.15
256,Zhigansk,93,RU,1644203813,99,66.7697,123.3711,-33.97,1.74
257,Lebu,3,CL,1644203813,92,-37.6167,-73.65,15.12,6.89
258,Tefé,100,BR,1644203813,96,-3.3542,-64.7114,23.44,0.67
259,Broome,0,US,1644203814,69,42.2506,-75.833,-4.5,0.45
260,Sittwe,97,MM,1644203814,48,20.15,92.9,18.73,2.37
261,Chokwé,20,MZ,1644203814,95,-24.5333,32.9833,21.23,4.17
262,Turinsk,78,RU,1644203815,98,58.0458,63.696,-19.74,1.55
263,Ngorongoro,100,TZ,1644203815,86,-3.2397,35.4875,11.77,0.88
264,Mareeba,49,AU,1644203815,76,-17.0,145.4333,29.81,2.6
265,Bud,99,US,1644203816,85,39.447,-86.1758,-2.03,2.78
266,Lomnice nad Popelkou,100,CZ,1644203816,89,50.5306,15.3734,3.4,5.6
267,Requena,0,ES,1644203816,43,39.4883,-1.1004,5.63,2.37
268,Vila,48,PT,1644203817,82,42.0304,-8.1588,4.07,2.4
269,Kavaratti,14,IN,1644203817,67,10.5669,72.642,25.36,3.1
270,Tateyama,29,JP,1644203818,39,34.9833,139.8667,8.01,1.18
271,Skjervøy,97,NO,1644203818,58,70.0311,20.9714,-1.55,5.85
272,Havre-St-Pierre,100,CA,1644203818,71,50.2334,-63.5986,-11.67,4.63
273,Kloulklubed,43,PW,1644203819,79,7.0419,134.2556,29.28,10.01
274,Nouadhibou,96,MR,1644203819,100,20.931,-17.0347,16.99,3.6
275,Vila do Maio,2,CV,1644203819,81,15.1333,-23.2167,20.44,4.81
276,Evans,98,US,1644203819,75,33.5337,-82.1307,5.58,2.24
277,Concepción del Uruguay,0,AR,1644203820,70,-32.4825,-58.2372,17.21,0.89
278,Ayan,92,RU,1644203820,60,56.45,138.1667,-13.31,2.58
279,Mnogovershinnyy,100,RU,1644203551,71,53.9353,139.9242,-14.93,3.07
280,Rutana Province,100,BI,1644203820,92,-3.8667,30.1,13.78,0.87
281,Rāyadrug,80,IN,1644203821,63,14.7,76.8667,23.12,2.25
282,Novyi Yarychiv,100,UA,1644203821,80,49.9044,24.3052,4.63,7.0
283,Chernoyerkovskaya,78,RU,1644203822,82,45.4331,37.7686,2.28,3.61
284,Calabozo,28,VE,1644203822,49,8.9242,-67.4293,28.42,2.75
285,Kieta,100,PG,1644203822,68,-6.2167,155.6333,30.48,5.22
286,Kruisfontein,0,ZA,1644203628,65,-34.0033,24.7314,20.94,2.04
287,Wuda,100,CN,1644203823,77,39.4994,106.7117,-4.87,2.8
288,Moranbah,1,AU,1644203823,35,-22.0016,148.0466,29.8,6.51
289,Harper,100,LR,1644203633,83,4.375,-7.7169,25.98,2.71
290,Weiser,22,US,1644203824,88,44.251,-116.9693,0.89,1.73
291,Tucumã,100,BR,1644203824,93,-0.1833,-50.05,23.9,1.99
292,Ballina,93,AU,1644203824,82,-28.8667,153.5667,23.02,7.82
293,Burnie,0,AU,1644203824,50,-41.0667,145.9167,22.19,4.38
294,Níjar,0,ES,1644203825,81,36.9665,-2.206,7.8,4.63
295,Ngunguru,100,NZ,1644203825,99,-35.6167,174.5,25.09,4.24
296,Chapais,100,CA,1644203825,95,49.7834,-74.8492,-15.12,2.47
297,Nanortalik,100,GL,1644203826,62,60.1432,-45.2371,-8.1,20.65
298,San Quintín,0,MX,1644203580,49,30.4833,-115.95,14.61,2.1
299,Samarai,88,PG,1644203826,70,-10.6167,150.6667,29.64,5.19
300,Tomatlán,100,MX,1644203826,83,19.9333,-105.25,19.71,0.69
301,Kapoeta,67,SS,1644203827,30,4.7717,33.5903,23.72,2.69
302,Hirado,87,JP,1644203827,49,33.3597,129.5531,9.1,2.28
303,Kingsville,100,US,1644203723,81,27.5159,-97.8561,14.14,1.79
304,Methóni,71,GR,1644203827,84,36.8197,21.7049,13.45,2.86
305,Pucallpa,40,PE,1644203828,94,-8.3791,-74.5539,26.02,2.06
306,Moscow,100,RU,1644203058,88,55.7522,37.6156,-2.65,3.86
307,Elbistan,74,TR,1644203828,93,38.2059,37.1983,-13.11,0.38
308,Ontario,0,US,1644203725,19,34.0633,-117.6509,21.08,1.34
309,Ostrovnoy,16,RU,1644203829,88,68.0531,39.5131,-11.37,8.34
310,Faya,9,SA,1644203829,84,18.3851,42.4509,10.29,1.53
311,Hithadhoo,31,MV,1644203829,69,-0.6,73.0833,28.01,6.32
312,Leiva,86,CO,1644203830,96,1.9339,-77.3025,17.07,0.91
313,Paracatu,100,BR,1644203782,98,-17.2222,-46.8747,19.28,0.93
314,Tessalit,0,ML,1644203830,16,20.1986,1.0114,15.34,2.66
315,Airai,29,TL,1644203792,61,-8.9266,125.4092,24.0,1.05
316,Natal,40,BR,1644203602,83,-5.795,-35.2094,26.36,2.06
317,Pisco,40,PE,1644203679,94,-13.7,-76.2167,19.45,2.06
318,Hlubočky,100,CZ,1644203830,86,49.6178,17.3944,5.77,5.93
319,Huarmey,100,PE,1644203831,78,-10.0681,-78.1522,21.87,2.85
320,Quang Ngai,73,VN,1644203831,77,15.1167,108.8,25.43,0.87
321,Port Blair,40,IN,1644203831,78,11.6667,92.75,27.02,5.14
322,Hofn,100,IS,1644203552,76,64.2539,-15.2082,-0.28,8.03
323,Mórrope,100,PE,1644203832,70,-6.5417,-80.0111,22.69,5.48
324,Vladislavovka,82,UA,1644203832,77,45.1667,35.3667,2.92,5.58
325,Pato Branco,0,BR,1644203832,73,-26.2286,-52.6706,14.14,2.4
326,Simao,16,CN,1644203595,74,22.7886,100.9748,14.72,1.48
327,Zhireken,35,RU,1644203833,80,52.8249,117.3076,-15.48,1.17
328,Palmer,20,US,1644203533,80,42.1584,-72.3287,-5.77,0.0
329,Somers Point,100,US,1644203833,80,39.3176,-74.5946,3.31,1.79
330,Nelson Bay,41,AU,1644203834,58,-32.7167,152.15,25.03,1.79
331,Saint Lawrence,54,MT,1644203834,82,36.0553,14.204,12.14,1.34
332,Antsohihy,26,MG,1644203834,96,-14.8796,47.9875,22.1,0.9
333,Tabanan,73,ID,1644203835,61,-8.5413,115.1252,30.22,1.35
334,Nantucket,0,US,1644203835,69,41.2835,-70.0995,1.06,5.14
335,Lagoa,7,PT,1644203835,85,39.05,-27.9833,15.31,7.37
336,Tarragona,7,ES,1644203836,69,41.129,1.249,10.03,0.45
337,Coyhaique,0,CL,1644203581,72,-45.5752,-72.0662,19.34,2.06
338,Brooks,3,CA,1644203425,68,50.5834,-111.8851,0.48,4.45
339,Shādegān,0,IR,1644203836,42,30.6497,48.6647,6.95,4.28
340,Humaitá,100,BR,1644203837,98,-7.5061,-63.0208,23.38,1.31
341,Rørvik,77,NO,1644203837,88,64.8621,11.2373,2.03,9.52
342,Trairi,3,BR,1644203837,81,-3.2778,-39.2689,25.09,2.75
343,Karoi,99,ZW,1644203837,95,-16.8099,29.6925,15.73,1.99
344,Asău,100,RO,1644203594,73,46.4333,26.4,0.98,2.66
345,Makat,100,KZ,1644203838,88,47.6469,53.3463,-5.27,3.26
346,Arrah,0,IN,1644203838,61,25.5667,84.6667,10.94,1.9
347,Vila Franca do Campo,27,PT,1644203839,81,37.7167,-25.4333,15.11,5.57
348,Vanimo,100,PG,1644203839,79,-2.6741,141.3028,27.93,2.07
349,Clyde River,20,CA,1644203839,68,70.4692,-68.5914,-34.87,4.63
350,Chipinge,74,ZW,1644203839,97,-20.1883,32.6236,15.17,0.72
351,Killybegs,94,IE,1644203840,85,54.6333,-8.45,6.92,4.84
352,Viedma,0,AR,1644203840,73,-40.8135,-62.9967,16.4,4.14
353,Izyaslav,100,UA,1644203840,99,50.1195,26.8213,1.4,5.94
354,Pombos,23,BR,1644203841,81,-8.1414,-35.3958,26.77,0.9
355,Gorom-Gorom,0,BF,1644203841,14,14.4439,-0.2361,18.37,4.23
356,Nizhniy Tsasuchey,8,RU,1644203842,79,50.5167,115.1333,-9.23,4.0
357,Portland,0,US,1644203842,83,45.5234,-122.6762,10.11,0.45
358,Richards Bay,81,ZA,1644203813,90,-28.783,32.0377,21.96,1.16
359,Isoka,100,ZM,1644203843,95,-10.1606,32.6335,15.82,0.81
360,Mandalgovi,7,MN,1644203843,49,45.7625,106.2708,-11.17,1.42
361,Konëvo,93,RU,1644203843,95,62.1215,39.3192,-12.79,3.57
362,Kichera,100,RU,1644203844,94,55.9375,110.0997,-11.16,1.22
363,Ardatov,94,RU,1644203844,97,55.2421,43.097,-10.4,2.68
364,Uusikaupunki,58,FI,1644203844,99,60.8004,21.4084,-4.71,2.14
365,Medicine Hat,20,CA,1644203700,55,50.0501,-110.6683,5.84,3.13
366,Sur,0,OM,1644203560,65,22.5667,59.5289,20.79,5.19
367,Muli,19,MV,1644203845,63,2.9167,73.5667,27.5,5.05
368,Cherskiy,25,RU,1644203845,100,68.75,161.3,-33.25,0.57
369,Shingū,89,JP,1644203846,39,33.7333,135.9833,7.55,4.67
370,Nālūt,95,LY,1644203846,25,30.3333,10.85,11.63,4.17
371,Moree,40,AU,1644203718,30,-29.4667,149.85,28.01,3.6
372,Antofagasta,28,CL,1644203846,76,-23.65,-70.4,18.6,0.64
373,Kiruna,100,SE,1644203847,93,67.8557,20.2251,-8.49,2.06
374,Nizhniy Odes,100,RU,1644203847,90,63.6445,54.856,-10.76,4.25
375,Tongling,100,CN,1644203847,100,30.95,117.7833,0.39,4.42
376,Rio Grande,0,BR,1644203848,61,-32.035,-52.0986,17.06,6.37
377,Banjar,100,ID,1644203848,73,-8.19,114.9675,30.92,2.86
378,Poddor'ye,100,RU,1644203848,94,57.4695,31.1156,-0.09,4.38
379,Chute-aux-Outardes,100,CA,1644203849,73,49.1168,-68.399,-11.01,5.66
380,Ibrā’,1,OM,1644203849,81,22.6906,58.5334,16.01,0.63
381,Karatau,95,KZ,1644203849,75,43.1667,70.4667,-0.02,4.68
382,Bam,7,IR,1644203849,36,29.106,58.357,8.24,1.26
383,Islāmpur,19,IN,1644203850,61,26.2667,88.2,16.57,1.67
384,Togur,100,RU,1644203850,100,58.3631,82.8265,-23.02,1.63
385,Nishihara,75,JP,1644203850,56,26.1842,127.7558,19.81,5.66
386,El Alto,53,PE,1644203851,80,-4.2714,-81.2147,21.0,5.13
387,Havøysund,52,NO,1644203851,77,70.9963,24.6622,-4.51,6.64
388,Bonavista,55,CA,1644203851,64,48.6499,-53.1147,-11.05,8.56
389,Paraná,0,AR,1644203852,82,-31.732,-60.5238,15.26,3.51
390,Guerrero Negro,0,MX,1644203669,55,27.9769,-114.0611,15.81,3.87
391,Kuril'sk,100,RU,1644203852,91,45.2333,147.8833,-1.59,6.65
392,Fortuna,0,US,1644203852,91,40.5982,-124.1573,8.57,1.3
393,Warrington,75,GB,1644203853,86,53.3925,-2.5802,6.1,0.45
394,Itarema,2,BR,1644203853,78,-2.9248,-39.9167,26.0,4.95
395,Umm Hājar,1,TD,1644203853,15,13.2954,19.6966,17.49,4.36
396,Tierralta,11,CO,1644203853,89,8.1736,-76.0592,23.34,2.18
397,Ucluelet,78,CA,1644203725,90,48.9329,-125.5528,7.27,3.28
398,Brigantine,100,US,1644203854,82,39.4101,-74.3646,3.34,0.0
399,Koumac,100,NC,1644203854,84,-20.5667,164.2833,27.87,8.73
400,Skrunda,100,LV,1644203854,99,56.6833,22.0167,-0.19,3.57
401,Hirara,75,JP,1644203855,60,24.8,125.2833,22.15,7.72
402,Pontes e Lacerda,100,BR,1644203609,98,-15.2261,-59.3353,21.1,0.92
403,Mezhdurechensk,100,RU,1644203566,89,53.6942,88.0603,-10.7,0.76
404,La Ronge,75,CA,1644203855,85,55.1001,-105.2842,-10.86,1.54
405,Orchard Homes,0,US,1644203856,73,46.8633,-114.0484,1.03,0.89
406,Luanda,100,AO,1644203710,87,-8.8368,13.2343,22.95,2.28
407,Phan Thiet,70,VN,1644203856,55,10.9333,108.1,29.99,4.95
408,Wajima,75,JP,1644203856,93,37.4,136.9,0.38,3.09
409,Marolambo,100,MG,1644203857,94,-20.05,48.1167,19.62,1.3
410,Dalbandin,61,PK,1644203857,29,28.8947,64.4101,10.14,3.75
411,Muromtsevo,95,RU,1644203857,94,56.3724,75.2418,-19.28,2.46
412,Matara,100,LK,1644203796,73,5.9485,80.5353,26.98,2.0
413,Padang,100,ID,1644203858,68,-0.9492,100.3543,30.03,0.55
414,Bonthe,95,SL,1644203858,90,7.5264,-12.505,24.83,1.23
415,Carutapera,100,BR,1644203738,94,-1.195,-46.02,24.26,1.99
416,Dahra,0,DZ,1644203858,87,36.2546,0.8519,6.66,1.68
417,Porto-Novo,59,BJ,1644203859,88,6.4965,2.6036,24.38,1.42
418,Kaohsiung City,75,TW,1644203859,75,22.6163,120.3133,20.58,1.54
419,Sterling,75,US,1644203859,55,39.0062,-77.4286,0.71,1.34
420,Saldanha,35,ZA,1644203860,99,-33.0117,17.9442,16.93,3.52
421,Caibarién,3,CU,1644203860,69,22.5206,-79.4669,20.62,6.02
422,Guarujá,99,BR,1644203860,26,-23.9931,-46.2564,26.78,2.56
423,Arica,0,CL,1644203087,72,-18.475,-70.3042,19.13,0.0
424,Ilhabela,100,BR,1644203574,96,-23.7781,-45.3581,24.34,1.62
425,Kusa,100,RU,1644203861,90,55.3383,59.4406,-11.59,1.17
426,Beyneu,87,KZ,1644203861,86,45.3167,55.2,-1.8,3.24
427,Roebourne,74,AU,1644203861,60,-20.7833,117.1333,32.18,4.68
428,Buluang,87,PH,1644203862,72,13.3068,123.3425,28.03,2.46
429,Guaymas,0,MX,1644203780,52,27.9333,-110.9,13.58,4.45
430,Skellefteå,100,SE,1644203862,69,64.7507,20.9528,-1.67,3.09
431,Slave Lake,100,CA,1644203863,49,55.2834,-114.769,6.99,7.2
432,Rapid Valley,0,US,1644203863,47,44.0625,-103.1463,5.23,0.45
433,Polokwane,20,ZA,1644203863,88,-23.9045,29.4688,16.47,0.51
434,Nevel'sk,100,RU,1644203863,72,46.6733,141.8633,-5.76,7.53
435,Emba,100,KZ,1644203584,97,48.8264,58.1442,-11.28,4.01
436,Ocampo,82,MX,1644203864,36,21.65,-101.5,12.01,2.96
437,Qianjiang,100,CN,1644203864,100,30.4151,112.8859,0.32,4.24
438,Kungurtug,59,RU,1644203864,80,50.5994,97.5228,-17.38,0.51
439,Sherbakul',18,RU,1644203865,91,54.6316,72.3963,-19.07,2.94
440,Cayenne,75,GF,1644203865,87,4.9333,-52.3333,26.72,2.24
441,East Millcreek,20,US,1644203865,70,40.7,-111.8105,1.23,0.45
442,Helena,0,US,1644203820,33,46.5927,-112.0361,5.55,2.06
443,Sennar,96,SD,1644203866,28,13.5691,33.5672,17.2,5.3
444,Severodvinsk,74,RU,1644203866,93,64.5635,39.8302,-11.94,5.04
445,Sechura,86,PE,1644203866,74,-5.5569,-80.8222,22.54,5.15
446,Paamiut,100,GL,1644203867,78,61.994,-49.6678,-11.95,12.07
447,Barra,100,BR,1644203753,84,-11.0894,-43.1417,22.87,2.47
448,Verkh-Chebula,24,RU,1644203867,85,56.0308,87.6218,-14.53,2.93
449,Zhangjiakou,100,CN,1644203734,40,40.81,114.8794,-6.31,1.81
450,Riyadh,0,SA,1644203794,46,24.6877,46.7219,9.08,1.9
451,Severnyy,0,RU,1644203868,80,50.677,36.5532,0.02,4.0
452,Osorno,0,CL,1644203683,77,-40.5667,-73.15,17.17,1.54
453,Mumford,94,GH,1644203868,86,5.2618,-0.759,26.16,3.1
454,Nhulunbuy,40,AU,1644203868,62,-12.2333,136.7667,32.34,3.6
455,Bissau,6,GW,1644203869,74,11.8636,-15.5977,22.29,1.86
456,Sungai Penuh,100,ID,1644203869,64,-2.0833,101.3833,23.16,2.15
457,Żyrardów,100,PL,1644203117,99,52.0488,20.446,4.87,6.67
458,Aklavik,100,CA,1644203869,91,68.2191,-135.0107,-30.6,8.67
459,Barguzin,72,RU,1644203870,92,53.6167,109.6167,-11.46,0.29
460,Noyabrsk,71,RU,1644203870,100,63.1994,75.4507,-26.16,3.11
461,Farafangana,99,MG,1644203870,93,-22.8167,47.8333,25.77,5.09
462,Kaeo,99,NZ,1644203707,96,-35.1,173.7833,25.18,2.88
463,Mount Isa,9,AU,1644203871,33,-20.7333,139.5,32.87,6.17
464,Baft,1,IR,1644203871,82,29.234,56.6057,0.81,1.54
465,Keti Bandar,6,PK,1644203872,74,24.1447,67.4497,21.09,3.27
466,Houlton,100,US,1644203872,70,46.1262,-67.8403,-10.77,4.12
467,Sühbaatar,43,MN,1644203872,86,50.2314,106.2078,-17.22,2.23
468,Shenjiamen,100,CN,1644203872,85,29.9576,122.298,7.38,7.83
469,Salvacion,85,PH,1644203873,83,7.9833,126.1333,26.34,2.99
470,Holt,0,US,1644203873,71,42.6406,-84.5153,-1.99,2.57
471,Yakuplu,0,TR,1644203874,76,40.9889,28.6758,7.64,4.12
472,Along,33,IN,1644203874,72,28.1667,94.7667,13.76,0.28
473,Ryōtsu-minato,100,JP,1644203875,61,38.0833,138.4333,2.98,6.36
474,Kuusamo,100,FI,1644203875,93,65.9667,29.1833,-5.98,6.17
475,Bariloche,0,AR,1644203875,47,-41.1456,-71.3082,16.8,3.6
476,Bang Saphan,8,TH,1644203664,52,11.2126,99.5117,29.8,1.82
477,Barra do Garças,99,BR,1644203643,97,-15.89,-52.2567,22.67,1.52
478,Qaqortoq,100,GL,1644203593,64,60.7167,-46.0333,-11.72,10.77
479,Oranjestad,20,AW,1644203876,73,12.524,-70.027,25.97,5.66
480,Tarakan,99,ID,1644203876,76,3.3,117.6333,26.32,1.29
481,Fare,77,PF,1644203876,74,-16.7,-151.0167,27.22,8.66
482,Umluj,0,SA,1644203877,35,25.0213,37.2685,18.46,6.86
483,Jiuquan,100,CN,1644203877,83,39.7432,98.5174,-9.91,0.86
484,Mocorito,0,MX,1644203877,66,25.4833,-107.9167,12.92,0.29
485,Cap Malheureux,100,MU,1644203878,81,-19.9842,57.6142,26.37,0.89
486,Puerto del Rosario,17,ES,1644203878,88,28.5004,-13.8627,17.86,7.2
487,Ardahan,93,TR,1644203878,99,41.1087,42.7022,-18.0,0.84
488,Solano,0,US,1644203879,70,38.2333,-121.9511,14.62,2.06
489,Hamilton,0,US,1644203879,86,39.1834,-84.5333,-0.57,0.0
490,Nāgamangala,80,IN,1644203879,74,12.8156,76.7575,20.83,1.83
491,Kutum,21,SD,1644203880,33,14.2,24.6667,8.16,3.9
492,Lady Frere,79,ZA,1644203880,70,-31.7031,27.2329,19.07,2.41
493,Port Lincoln,0,AU,1644203725,48,-34.7333,135.8667,26.42,8.19
494,Dhār,0,IN,1644203880,31,22.6,75.3,17.02,1.4
495,Santiago del Estero,0,AR,1644203881,52,-27.7951,-64.2615,21.35,2.09
496,Hof,75,DE,1644203881,88,50.3167,11.9167,1.53,6.17
497,Kisangani,100,CD,1644203881,55,0.5167,25.2,19.4,0.46
498,Barabai,96,ID,1644203881,72,-2.5833,115.3833,29.35,1.44
499,Puerto El Triunfo,70,SV,1644203882,67,13.2833,-88.55,24.09,1.73
500,Miyako,92,JP,1644203882,43,39.6367,141.9525,2.63,4.26
501,Sakakah,0,SA,1644203882,59,29.9697,40.2064,4.76,2.1
502,Kampot,96,KH,1644203883,53,10.6167,104.1833,30.03,2.63
503,Morondava,100,MG,1644203883,84,-20.2833,44.2833,26.89,11.02
504,Broken Hill,0,AU,1644203883,26,-31.95,141.4333,27.94,6.94
505,General Roca,0,AR,1644203884,21,-39.0333,-67.5833,24.82,6.68
506,Taksimo,100,RU,1644203884,93,56.3444,114.8794,-17.78,0.44
507,Samaná,23,DO,1644203884,88,19.2056,-69.3369,22.21,4.29
508,Riberalta,100,BO,1644203885,98,-10.9833,-66.1,22.46,1.06
509,Takoradze,100,GH,1644203885,86,4.8845,-1.7554,26.04,2.35
510,Pemberton,41,CA,1644203744,86,50.3164,-122.8027,0.92,1.16
511,Guangzhou,95,CN,1644203771,81,23.1167,113.25,15.56,1.1
512,Varhaug,41,NO,1644203886,68,58.6147,5.6457,4.15,14.84
513,Shalinskoye,100,RU,1644203886,82,55.7228,93.7594,-9.2,2.67
514,Osa,100,RU,1644203886,93,57.2829,55.4567,-11.31,1.9
515,Köthen,73,DE,1644203887,73,51.75,11.9667,4.3,10.37
516,Araouane,0,ML,1644203887,13,18.9048,-3.5265,16.94,3.7
517,Äänekoski,100,FI,1644203887,100,62.6946,25.818,-0.96,3.25
518,Port Hueneme,0,US,1644203887,34,34.1478,-119.1951,23.51,3.6
519,Karratha,65,AU,1644203888,58,-20.7377,116.8463,32.76,4.82
520,Butembo,100,CD,1644203888,48,0.15,29.2833,14.11,1.11
521,Vostok,99,RU,1644203888,83,46.4856,135.8833,-14.17,2.62
522,Amahai,55,ID,1644203889,62,-3.3333,128.9167,30.44,2.41
523,Vershino-Shakhtaminskiy,81,RU,1644203889,83,51.3012,117.8868,-13.11,1.45
524,Thinadhoo,100,MV,1644203889,62,0.5333,72.9333,28.23,5.65
525,Ust'-Shonosha,100,RU,1644203890,95,61.1531,41.343,-12.31,3.01
526,Nikolskoye,100,RU,1644203890,97,59.7035,30.7861,2.71,3.12
527,Kavieng,55,PG,1644203890,71,-2.5744,150.7967,28.7,1.2
528,Henties Bay,93,NA,1644203891,83,-22.116,14.2845,19.92,2.32
529,Agen,100,FR,1644203891,93,44.2,0.6333,10.31,6.17
530,Gospić,100,HR,1644203891,91,44.5461,15.3747,5.83,5.87
531,Ilām,55,NP,1644203892,76,26.9167,87.9167,10.04,1.29
532,Tsimmerbude,100,RU,1644203892,84,54.675,20.1347,3.03,8.35
533,Santiago de Chuco,100,PE,1644203892,91,-8.15,-78.1833,10.79,0.85
534,Vanavara,100,RU,1644203893,98,60.34,102.2797,-22.66,1.02
535,Rāmhormoz,0,IR,1644203893,62,31.28,49.6035,4.04,2.27
536,Najrān,32,SA,1644203893,59,17.4924,44.1277,9.36,1.42
537,Eyl,100,SO,1644203894,79,7.9803,49.8164,22.63,5.55
538,Tilichiki,1,RU,1644203894,79,60.4667,166.1,-20.4,3.85
539,Naze,100,JP,1644203894,59,28.3667,129.4833,13.51,2.13
540,Iralaya,4,HN,1644203893,68,15.0,-83.2333,23.61,3.24
541,Zaysan,2,KZ,1644203895,72,47.4667,84.8667,-10.5,1.68
542,Gemena,95,CD,1644203895,33,3.25,19.7667,20.63,0.91
543,Camacupa,100,AO,1644203895,62,-12.0167,17.4833,16.83,2.33
544,Xichang,83,CN,1644203896,78,27.8964,102.2634,7.86,1.25
545,Palivere,100,EE,1644203896,99,58.9664,23.8911,0.96,1.62
546,Ipixuna,100,BR,1644203896,97,-1.7625,-48.8043,23.97,1.02
547,Safi,66,MA,1644203897,76,32.2994,-9.2372,13.88,5.56
548,Conceição do Araguaia,95,BR,1644203897,93,-8.2578,-49.2647,23.37,0.88
549,Pueblo,0,US,1644203728,66,38.2545,-104.6091,1.32,0.0
550,Srednekolymsk,30,RU,1644203797,96,67.45,153.6833,-32.02,0.75
551,Hvide Sande,7,DK,1644203898,74,56.0045,8.1294,4.49,15.06
552,Girona,20,ES,1644203898,89,41.9831,2.8249,9.5,1.03
553,Belgrade,0,RS,1644203898,57,44.804,20.4651,7.81,4.63
554,Ubatuba,100,BR,1644203898,98,-23.4339,-45.0711,24.02,0.71
555,Chernyshevsk,88,RU,1644203899,94,52.5243,117.0174,-20.93,1.15
556,Buchanan,90,LR,1644203899,87,5.8808,-10.0467,25.3,2.44
557,Kayes,0,ML,1644203899,10,14.0,-11.0,23.03,2.68
558,Bouza,0,NE,1644203900,14,14.4229,6.0428,15.55,4.64
559,Svetlaya,5,RU,1644203900,50,46.5389,138.3297,-7.88,1.12
